City_ID,City,Lat,Lng,Max Temp,Humidity,Cloudiness,Wind Speed,Country,Date
0,longyearbyen,78.2186,15.6401,11.91,87,75,1.03,SJ,1723100286
1,porto novo,6.4965,2.6036,24.9,83,100,3.48,BJ,1723100055
2,maisi,43.0395,41.2621,23.57,51,0,2.54,GE,1723100288
3,puerto ayora,-0.7393,-90.3518,19.19,92,87,2.68,EC,1723100289
4,saint-philippe,-21.3585,55.7679,25.77,69,2,3.75,RE,1723100290
5,puerto natales,-51.7236,-72.4875,1.44,87,100,1.05,CL,1723100044
6,invercargill,-46.4,168.35,7.23,90,60,0.45,NZ,1723100292
7,jamestown,42.097,-79.2353,19.45,94,100,2.06,US,1723100293
8,waitangi,-43.9535,-176.5597,10.46,72,27,7.82,NZ,1723100294
9,port-aux-francais,-49.35,70.2167,0.09,90,100,10.39,TF,1723100297
10,klyuchi,52.2667,79.1667,27.12,50,100,3.26,RU,1723100298
11,cabo san lucas,22.8909,-109.9124,28.75,70,100,3.58,MX,1723100299
12,sima,53.9202,102.0442,24.85,51,42,1.21,RU,1723100300
13,klaksvik,62.2266,-6.589,10.51,91,13,4.8,FO,1723100301
14,vernon,50.2581,-119.2691,20.42,48,0,3.6,CA,1723100302
15,ulladulla,-35.35,150.4667,17.09,74,100,5.69,AU,1723100303
16,queenstown,-31.8976,26.8753,16.57,26,0,4.01,ZA,1723100101
17,mount gambier,-37.8333,140.7667,9.15,97,100,4.25,AU,1723100305
18,kikwit,-5.041,18.8162,28.34,34,2,2.42,CD,1723100306
19,bada,51.392,109.8717,26.03,39,1,1.6,RU,1723100307
20,las pedroneras,39.45,-2.6739,24.54,50,0,7.36,ES,1723100309
21,tolga,34.7222,5.3785,30.45,30,0,5.15,DZ,1723100310
22,arumbavur,11.3833,78.7333,31.07,58,100,2.92,IN,1723100312
23,grytviken,-54.2811,-36.5092,-10.51,67,25,2.72,GS,1723100313
24,carnarvon,-24.8667,113.6333,20.89,58,3,6.88,AU,1723100314
25,badger,64.8,-147.5333,20.93,74,75,5.66,US,1723100315
26,whitehorse,60.7161,-135.0538,21.43,43,0,5.14,CA,1723100316
27,yellowknife,62.456,-114.3525,17.29,51,20,4.12,CA,1723100317
28,dudinka,69.4058,86.1778,17.19,41,2,8.9,RU,1723100318
29,bredasdorp,-34.5322,20.0403,10.64,86,0,2.47,ZA,1723100319
30,port lincoln,-34.7333,135.8667,14.71,64,1,6.24,AU,1723100320
31,isafjordur,66.0755,-23.124,6.53,89,84,1.32,IS,1723100321
32,iqaluit,63.7506,-68.5145,4.85,80,40,0.0,CA,1723100322
33,blackmans bay,-43.0167,147.3167,14.29,54,100,2.68,AU,1723100323
34,pursat,12.3333,103.6667,33.37,46,100,1.61,KH,1723100324
35,stanley,54.868,-1.6985,14.88,86,83,3.41,GB,1723100326
36,gornopravdinsk,60.05,69.9,13.78,57,100,3.39,RU,1723100327
37,iskateley,67.6803,53.1512,15.98,48,0,2.68,RU,1723100328
38,pionerskiy,54.9508,20.2275,20.91,72,100,3.84,RU,1723100329
39,crane,31.3974,-102.3501,31.62,23,0,2.88,US,1723100330
40,tipasa,36.5897,2.4475,27.87,67,8,2.71,DZ,1723100331
41,college,64.8569,-147.8028,20.97,69,75,5.66,US,1723100332
42,kichmengskiy gorodok,59.9816,45.7854,16.12,82,100,2.47,RU,1723100333
43,yongchuan,29.3514,105.8947,36.08,48,39,4.71,CN,1723100334
44,ushuaia,-54.8,-68.3,1.81,80,100,0.51,AR,1723100335
45,bilibino,68.0546,166.4372,12.91,43,100,5.93,RU,1723100336
46,thinadhoo,0.5333,72.9333,26.44,78,100,5.01,MV,1723100337
47,i-n-salah,27.1935,2.4607,33.13,16,0,7.86,DZ,1723100338
48,adamstown,-25.066,-130.1015,19.84,70,100,5.85,PN,1723100340
49,lebu,-37.6167,-73.65,4.67,85,0,2.14,CL,1723100341
50,saipan,15.1355,145.701,32.39,70,40,3.09,MP,1723100342
51,albany,42.6001,-73.9662,16.56,81,69,0.89,US,1723100093
52,udachny,66.4167,112.4,21.83,60,98,5.77,RU,1723100344
53,haiku-pauwela,20.9219,-156.3051,24.57,83,40,6.69,US,1723100345
54,papatowai,-46.5619,169.4708,6.54,88,26,3.06,NZ,1723100346
55,callao,-12.0667,-77.15,16.16,82,100,2.06,PE,1723100081
56,polyarnyy,69.1989,33.4478,17.44,50,53,3.35,RU,1723100348
57,smithers,54.7804,-127.1743,17.18,72,0,1.03,CA,1723100349
58,ilulissat,69.2167,-51.1,2.86,94,100,1.01,GL,1723100350
59,togur,58.3631,82.8265,21.15,54,57,3.37,RU,1723100351
60,tlayacapan,18.9333,-98.9833,21.17,88,100,1.98,MX,1723100353
61,tandalti,13.0167,31.8667,27.01,68,100,3.98,SD,1723100354
62,ribeira grande,38.5167,-28.7,22.1,78,20,3.13,PT,1723100355
63,maxixe,-23.8597,35.3472,19.91,100,40,0.0,MZ,1723100356
64,hermanus,-34.4187,19.2345,9.89,81,1,3.49,ZA,1723100357
65,auki,-8.7676,160.7034,25.35,90,100,1.76,SB,1723100358
66,colonia,50.9333,6.95,18.79,75,0,3.09,DE,1723100074
67,nizhneudinsk,54.9076,99.0276,17.56,88,95,1.71,RU,1723100360
68,lihue,21.9789,-159.3672,25.77,77,75,6.69,US,1723100361
69,cheongsong gun,36.4335,129.057,29.15,64,100,4.21,KR,1723100362
70,uturoa,-16.7333,-151.4333,26.08,83,2,1.46,PF,1723100363
71,coquimbo,-29.9533,-71.3436,11.85,76,100,1.54,CL,1723100364
72,hell-ville,-13.4,48.2667,25.93,56,20,4.12,MG,1723100365
73,st. john's,47.5649,-52.7093,15.44,92,0,5.14,CA,1723100336
74,somersworth,43.2617,-70.8653,15.22,84,0,1.13,US,1723100368
75,aiquile,-18.2041,-65.1807,10.31,93,1,1.6,BO,1723100369
76,west island,-12.1568,96.8225,28.99,70,75,5.66,CC,1723100370
77,filey,54.21,-0.2892,16.05,85,60,2.68,GB,1723100371
78,talnakh,69.4865,88.3972,18.89,42,79,5.79,RU,1723100372
79,sampit,-2.5333,112.95,29.7,68,100,2.25,ID,1723100373
80,aberdeen,57.1437,-2.0981,16.41,73,0,3.7,GB,1723100375
81,mazagao,-0.115,-51.2894,27.03,92,2,1.4,BR,1723100376
82,edinburgh of the seven seas,-37.0676,-12.3116,9.73,58,100,10.12,SH,1723100377
83,mugia,43.1041,-9.2179,20.09,83,19,8.76,ES,1723100378
84,namdrik,5.5994,168.1028,27.95,74,100,4.7,MH,1723100379
85,vilyuysk,63.7553,121.6247,21.83,35,7,1.28,RU,1723100380
86,chibougamau,49.9168,-74.3659,12.79,100,100,0.0,CA,1723100382
87,camana,-16.6228,-72.7111,14.7,89,100,4.59,PE,1723100384
88,santa ana,33.7456,-117.8678,22.11,88,0,2.06,US,1723100385
89,flying fish cove,-10.4217,105.6791,26.82,78,100,7.72,CX,1723100386
90,weno,7.4515,151.8468,29.58,74,20,4.55,FM,1723100387
91,port-vila,-17.7338,168.3219,22.78,78,75,5.14,VU,1723100388
92,belmonte,-15.8631,-38.8828,22.56,65,98,1.63,BR,1723100389
93,magadan,59.5667,150.8,14.47,81,15,2.73,RU,1723100390
94,teknaf,20.8624,92.3058,26.41,88,100,4.18,BD,1723100391
95,georgetown,5.4112,100.3354,33.96,55,20,6.17,MY,1723100392
96,atafu village,-8.5421,-172.5159,28.59,72,100,9.27,TK,1723100394
97,ta`u,-14.2336,-169.5144,25.04,78,100,10.32,AS,1723100395
98,saldanha,-33.0117,17.9442,12.03,92,100,8.73,ZA,1723100396
99,olonkinbyen,70.9221,-8.7187,5.3,100,100,3.18,SJ,1723100397
100,kavaratti,10.5669,72.642,27.06,81,100,5.64,IN,1723100398
101,naracoorte,-36.9579,140.7383,9.56,94,100,5.97,AU,1723100399
102,pangody,65.85,74.4859,15.17,52,59,4.99,RU,1723100400
103,port mathurin,-19.6833,63.4167,22.3,75,20,5.92,MU,1723100114
104,tura,25.5198,90.2201,28.88,77,79,4.15,IN,1723100402
105,tuy hoa,13.0833,109.3,37.57,40,46,3.22,VN,1723100403
106,constantia,44.1833,28.65,26.5,59,1,1.91,RO,1723100404
107,tandil,-37.3217,-59.1332,4.82,95,100,8.53,AR,1723100406
108,ridgecrest,35.6225,-117.6709,33.92,19,0,2.57,US,1723100171
109,avarua,-21.2078,-159.775,22.03,53,20,2.57,CK,1723100175
110,gebeit,21.0667,36.3167,29.15,53,85,2.76,SD,1723100409
111,nuku'alofa,-21.1333,-175.2,21.19,73,40,6.17,TO,1723100410
112,ancud,-41.8697,-73.8203,3.77,89,100,1.42,CL,1723100411
113,walvis bay,-22.9575,14.5053,11.72,87,100,1.54,,1723100412
114,anadyr,64.75,177.4833,8.28,81,40,4.0,RU,1723100413
115,ansermanuevo,4.7972,-75.995,22.43,96,68,0.61,CO,1723100415
116,bengkulu,-3.8004,102.2655,29.56,69,95,6.25,ID,1723100416
117,moyale,3.5167,39.0584,18.77,85,100,5.13,KE,1723100417
118,lompoc,34.6391,-120.4579,18.08,87,0,2.06,US,1723100418
119,flin flon,54.7682,-101.865,11.6,59,100,2.99,CA,1723100419
120,aldinga beach,-35.2793,138.4604,14.31,91,100,5.66,AU,1723100420
121,pujili,-0.95,-78.6833,9.71,93,37,2.1,EC,1723100421
122,bujaru,-1.515,-48.0447,21.93,100,45,1.01,BR,1723100422
123,tiksi,71.6872,128.8694,7.67,93,100,1.92,RU,1723100423
124,nadi,-17.8,177.4167,25.0,57,40,2.06,FJ,1723100424
125,labytnangi,66.6572,66.4183,16.23,51,10,0.66,RU,1723100425
126,la passe,45.5549,-0.8967,18.34,67,7,3.02,FR,1723100426
127,san antonio de pale,-1.4014,5.6325,22.81,76,100,3.76,GQ,1723100427
128,bollnas,61.3482,16.3946,18.36,89,100,2.25,SE,1723100429
129,beauvais,49.4167,2.0,18.14,79,0,1.54,FR,1723100430
130,howrah,22.5892,88.3103,30.0,84,75,4.12,IN,1723100310
131,balkashino,52.5167,68.7667,21.71,70,100,3.97,KZ,1723100432
132,punta arenas,-53.15,-70.9167,2.06,80,100,3.6,CL,1723100224
133,sittwe,20.15,92.9,26.83,83,100,3.69,MM,1723100434
134,tsiombe,-25.3,45.4833,25.01,53,0,3.64,MG,1723100435
135,wailua homesteads,22.0669,-159.378,23.75,91,40,5.15,US,1723100436
136,antalaha,-14.9003,50.2788,24.61,58,100,4.32,MG,1723100437
137,chokwe,-24.5333,32.9833,23.06,67,2,5.11,MZ,1723100438
138,dhidhdhoo,6.8833,73.1,28.19,75,52,6.17,MV,1723100439
139,afaahiti,-17.75,-149.2833,25.93,85,39,6.67,PF,1723100441
140,watford city,47.8022,-103.2832,9.69,93,100,0.0,US,1723100442
141,dingcheng,32.1272,115.0394,36.73,48,100,4.11,CN,1723100443
142,pandan,14.0453,124.1694,30.81,72,83,5.04,PH,1723100444
143,pisco,-13.7,-76.2167,16.03,82,100,3.6,PE,1723100445
144,papao,-17.75,-149.55,26.82,80,57,6.3,PF,1723100446
145,new norfolk,-42.7826,147.0587,14.95,61,100,3.59,AU,1723100447
146,notodden,59.5594,9.2585,15.84,80,100,1.63,NO,1723100448
147,morondava,-20.2833,44.2833,24.37,52,0,2.64,MG,1723100449
148,sandnessjoen,66.0217,12.6316,19.29,73,59,7.77,NO,1723100450
149,olyokminsk,60.3736,120.4264,28.14,29,25,1.44,RU,1723100451
150,kiboga,0.9161,31.7742,26.82,42,4,0.68,UG,1723100452
151,ibshaway,29.358,30.6814,32.14,34,0,4.4,EG,1723100454
152,westport,41.1415,-73.3579,19.02,92,100,4.12,US,1723100157
153,new plymouth,-39.0667,174.0833,10.45,100,10,3.55,NZ,1723100456
154,stornoway,58.2093,-6.3865,11.98,93,20,2.57,GB,1723100457
155,serang,-6.1149,106.1502,30.64,63,98,2.53,ID,1723100458
156,dryden,49.7833,-92.7503,14.16,82,100,4.12,CA,1723100459
157,hawaiian paradise park,19.5933,-154.9731,23.82,87,51,0.45,US,1723100460
158,fort bragg,35.139,-79.006,24.91,95,100,8.23,US,1723100461
159,dalbandin,28.8947,64.4101,36.96,29,47,2.73,PK,1723100462
160,nola,40.922,14.5329,29.66,68,57,1.11,IT,1723100463
161,broome,42.2506,-75.833,18.17,86,96,0.89,US,1723100464
162,mogadishu,2.0371,45.3438,26.93,74,75,7.2,SO,1723100465
163,norman gardens,-23.3224,150.5393,22.29,61,100,4.63,AU,1723100466
164,vila velha,-20.3297,-40.2925,21.64,85,0,4.47,BR,1723100153
165,zaozersk,69.4005,32.4476,18.92,47,56,3.68,RU,1723100469
166,holbrook,40.8123,-73.0784,19.26,92,100,1.34,US,1723100470
167,astrakhan,46.3497,48.0408,27.93,47,0,3.0,RU,1723100471
168,kerikeri,-35.2268,173.9474,12.73,92,83,0.45,NZ,1723100472
169,broken hill,-31.95,141.4333,16.1,40,100,6.17,AU,1723100473
170,muisne,0.6,-80.0333,23.82,88,100,3.91,EC,1723100474
171,viqueque,-8.8673,126.3658,27.04,64,31,4.09,TL,1723100475
172,portland,45.5234,-122.6762,23.08,68,6,0.45,US,1723100167
173,fort stockton,30.894,-102.8793,30.42,26,0,5.14,US,1723100477
174,gadzhiyevo,69.2551,33.3362,18.14,49,46,3.23,RU,1723100479
175,riberalta,-10.9833,-66.1,24.32,65,0,1.0,BO,1723100481
176,port hueneme,34.1478,-119.1951,21.64,90,100,2.57,US,1723100482
177,neiafu,-18.65,-173.9833,22.38,64,20,3.6,TO,1723100483
178,cidreira,-30.1811,-50.2056,14.62,94,100,2.39,BR,1723100484
179,ore,6.7457,4.8775,24.06,90,72,1.04,NG,1723100485
180,saint-francois,46.4154,3.9054,19.26,83,0,0.0,FR,1723100486
181,an nabk,34.0255,36.7284,29.25,23,0,2.32,SY,1723100487
182,sisimiut,66.9395,-53.6735,4.91,91,30,4.79,GL,1723100488
183,general pinedo,-27.3167,-61.2833,10.46,28,100,5.21,AR,1723100489
184,dunedin,-45.8742,170.5036,7.67,83,28,2.24,NZ,1723100475
185,al mishkhab,31.8042,44.4911,41.06,13,0,6.52,IQ,1723100492
186,margaret river,-33.95,115.0667,15.87,64,98,6.46,AU,1723100493
187,asifabad,19.3667,79.2833,26.31,84,100,4.56,IN,1723100494
188,port macquarie,-31.4333,152.9167,17.26,66,0,1.34,AU,1723100496
189,ponta delgada,37.7333,-25.6667,22.4,88,20,2.57,PT,1723100404
190,bethel,41.3712,-73.414,18.11,89,67,0.45,US,1723100488
191,thunder bay,48.4001,-89.3168,16.99,100,100,1.54,CA,1723100458
192,omutninsk,58.67,52.1932,14.28,92,100,2.5,RU,1723100501
193,juneau,58.3019,-134.4197,17.0,72,0,0.0,US,1723100238
194,narasannapeta,18.4167,84.05,32.81,58,70,2.51,IN,1723100503
195,karratha,-20.7377,116.8463,27.77,26,39,1.96,AU,1723100504
196,brokopondo,4.75,-55.1667,25.19,84,0,2.34,SR,1723100505
197,alice springs,-23.7,133.8833,26.75,22,1,4.12,AU,1723100506
198,ciudad bolivar,8.1222,-63.5497,24.16,94,4,2.6,VE,1723100507
199,qaqortoq,60.7167,-46.0333,7.16,93,100,1.33,GL,1723100509
200,sola,-13.8833,167.55,27.37,57,75,6.17,VU,1723100510
201,tongliao,43.6125,122.2653,31.78,35,3,4.83,CN,1723100511
202,hammerfest,70.6634,23.6821,20.25,52,0,5.66,NO,1723100512
203,borba,-4.3878,-59.5939,22.13,58,93,0.78,BR,1723100513
204,nefteyugansk,61.0998,72.6035,13.78,58,100,5.31,RU,1723100514
205,brazzaville,-4.2658,15.2832,22.2,78,75,2.06,CG,1723100515
206,alghero,40.5589,8.3181,26.05,73,0,1.03,IT,1723100516
207,tadine,-21.55,167.8833,19.93,73,100,5.1,NC,1723100518
208,micheweni,-4.9667,39.8333,26.05,66,83,5.16,TZ,1723100519
209,huarmey,-10.0681,-78.1522,16.56,86,14,2.79,PE,1723100520
210,piriapolis,-34.8682,-55.2744,9.95,90,0,3.09,UY,1723100521
211,ambovombe,-25.1667,46.0833,23.26,60,0,2.98,MG,1723100522
212,al wajh,26.2455,36.4525,34.97,36,0,2.06,SA,1723100471
213,selfoss,63.9331,-20.9971,10.58,94,22,0.43,IS,1723100524
214,urangan,-25.3,152.9,18.9,72,0,5.7,AU,1723100525
215,aksu,41.1231,80.2644,31.56,25,0,1.73,CN,1723100526
216,tazacorte,28.629,-17.9293,22.54,70,75,6.69,ES,1723100527
217,san patricio,28.017,-97.5169,29.38,78,0,4.74,US,1723100528
218,utrik,11.2278,169.8474,28.42,77,1,6.59,MH,1723100530
219,dingtao,35.0683,115.5625,31.21,73,52,1.38,CN,1723100531
220,fale old settlement,-9.3852,-171.2468,28.25,75,99,9.34,TK,1723100533
221,barstow heights,34.8697,-117.0562,32.73,19,86,4.0,US,1723100534
222,quellon,-43.1167,-73.6167,5.09,88,100,1.46,CL,1723100535
223,aasiaat,68.7098,-52.8699,3.23,95,100,3.31,GL,1723100536
224,nar'yan-mar,67.6713,53.087,15.95,48,0,2.66,RU,1723100537
225,la sarre,48.8002,-79.1996,12.1,71,100,2.83,CA,1723100538
226,sinabang,2.4803,96.3801,30.33,62,97,2.63,ID,1723100539
227,bardai,11.65,7.2333,21.54,94,100,6.2,NG,1723100540
228,kavieng,-2.5744,150.7967,28.88,74,36,4.6,PG,1723100542
229,tralee,52.2704,-9.7026,15.51,96,100,1.95,IE,1723100543
230,hasaki,35.7333,140.8333,30.22,78,0,2.97,JP,1723100544
231,kuhmo,64.1333,29.5167,18.27,53,13,2.02,FI,1723100545
232,sakakah,29.9697,40.2064,30.76,12,0,6.09,SA,1723100546
233,kargasok,59.0556,80.8572,18.83,57,50,3.69,RU,1723100547
234,nakanojomachi,36.5833,138.85,32.02,65,23,0.96,JP,1723100548
235,black point,-34.6187,137.8972,14.11,72,65,5.01,AU,1723100549
236,fauske,67.2588,15.3918,21.64,65,100,4.86,NO,1723100550
237,mizdah,31.4451,12.9801,26.93,48,0,4.8,LY,1723100551
238,genhe,50.7833,121.5167,20.69,79,100,1.47,CN,1723100552
239,graaff-reinet,-32.2522,24.5308,16.7,33,0,3.86,ZA,1723100553
240,mamontovo,52.7055,81.6244,26.54,52,100,4.99,RU,1723100555
241,takoradi,4.8845,-1.7554,23.24,88,100,3.98,GH,1723100556
242,santa terezinha,-29.9002,-50.0904,14.84,96,100,3.12,BR,1723100557
243,usogorsk,63.4106,48.6872,19.89,38,5,3.23,RU,1723100558
244,lagoa,39.05,-27.9833,22.05,68,0,2.37,PT,1723100559
245,praia da vitoria,38.7333,-27.0667,23.14,83,75,2.28,PT,1723100560
246,khandyga,62.6667,135.6,20.53,51,4,0.64,RU,1723100561
247,hamilton,39.1834,-84.5333,21.34,89,4,0.45,US,1723100162
248,sitka,57.0531,-135.33,15.17,93,38,0.36,US,1723100563
249,anaconda,46.1285,-112.9423,9.89,96,12,1.86,US,1723100406
250,kingston,17.997,-76.7936,28.53,84,40,4.63,JM,1723100384
251,mednogorsk,51.4128,57.595,24.17,60,33,4.35,RU,1723100566
252,gisborne,-38.6533,178.0042,10.31,86,88,3.07,NZ,1723100567
253,san ignacio,17.1561,-89.0714,25.08,94,0,0.0,BZ,1723100569
254,changwon,35.2281,128.6811,32.93,59,100,1.01,KR,1723100570
255,arraial do cabo,-22.9661,-42.0278,21.81,83,0,6.06,BR,1723100571
256,qiryat shemona,33.2073,35.5721,30.94,43,0,3.52,IL,1723100572
257,polovinnoye,54.7914,65.9864,18.79,63,100,5.33,RU,1723100573
258,susuman,62.7833,148.1667,12.57,74,100,1.8,RU,1723100574
259,al bawiti,28.3492,28.8659,32.29,30,0,3.25,EG,1723100575
260,kapuskasing,49.4169,-82.4331,17.0,72,100,2.06,CA,1723100503
261,pointe aux piments,-20.0628,57.5131,26.95,69,0,5.83,MU,1723100577
262,vilyuchinsk,52.9306,158.4028,24.15,79,93,5.01,RU,1723100578
263,galesong,-5.3166,119.3661,33.01,59,12,3.47,ID,1723100579
264,kargopol',61.5071,38.9456,19.81,56,41,2.66,RU,1723100580
265,bhag,29.0415,67.8239,37.82,47,0,2.5,PK,1723100581
266,al muwayh,22.4333,41.7583,34.22,28,98,5.64,SA,1723100583
267,souillac,-20.5167,57.5167,26.86,61,20,4.63,MU,1723100584
268,hithadhoo,-0.6,73.0833,27.44,78,100,5.2,MV,1723100585
269,masterton,-40.9597,175.6575,9.94,90,100,2.65,NZ,1723100586
270,malaga,36.7202,-4.4203,29.43,51,0,1.03,ES,1723100588
271,antsiranana,-12.2787,49.2917,28.42,34,20,9.26,MG,1723100589
272,agadez,19.75,10.25,32.29,10,90,4.54,NE,1723100590
273,loango,-4.6719,11.8312,21.81,88,75,4.12,CG,1723100591
274,port elizabeth,-33.918,25.5701,13.16,94,20,3.09,ZA,1723100308
275,madalena,41.2162,-8.3345,20.3,90,0,0.25,PT,1723100593
276,hilo,19.7297,-155.09,25.16,90,45,0.45,US,1723100594
277,belogorsk,50.9158,128.4611,26.69,50,61,1.18,RU,1723100595
278,ceeldheer,3.8488,47.1806,28.14,56,90,8.94,SO,1723100596
279,vorgashor,67.5833,63.95,15.75,46,7,2.23,RU,1723100598
280,thompson,55.7435,-97.8558,9.09,81,20,3.09,CA,1723100599
281,bumbesti-jiu,45.1667,23.4,25.27,45,0,1.41,RO,1723100600
282,xuddur,4.1213,43.8894,26.23,55,98,8.54,SO,1723100601
283,schroeder,-26.4125,-49.0731,19.08,92,100,1.13,BR,1723100602
284,hlusk,52.903,28.6845,20.02,67,0,2.3,BY,1723100603
285,la'ie,21.6477,-157.9253,26.67,80,1,1.34,US,1723100604
286,nemuro,43.3236,145.575,18.46,100,100,3.83,JP,1723100605
287,gislaved,57.3044,13.5408,18.11,75,100,1.99,SE,1723100606
288,ola,59.5833,151.2833,14.33,82,37,3.4,RU,1723100607
289,levuka,50.1834,-105.4011,5.84,67,5,1.17,CA,1723100608
290,kapa'a,22.0752,-159.319,25.18,81,20,5.14,US,1723100609
291,jiexiu,37.0244,111.9125,30.07,59,100,1.15,CN,1723100610
292,tabas,33.5959,56.9244,41.23,6,0,3.13,IR,1723100611
293,chonchi,-42.6128,-73.8092,1.73,97,100,0.54,CL,1723100613
294,kampene,-3.6,26.6667,28.19,29,51,1.73,CD,1723100614
295,fortuna,40.5982,-124.1573,13.53,95,100,0.0,US,1723100615
296,torghay,49.6339,63.4981,32.05,35,100,5.11,KZ,1723100616
297,kailua-kona,19.6406,-155.9956,27.0,88,40,7.72,US,1723100617
298,partenit,44.578,34.3446,25.32,54,0,2.81,UA,1723100618
299,roma,43.2128,-75.4557,17.63,93,0,2.57,US,1723100569
300,sao jose da coroa grande,-8.8978,-35.1478,22.81,85,11,2.19,BR,1723100620
301,vila franca do campo,37.7167,-25.4333,22.23,89,34,3.03,PT,1723100622
302,kadom,54.5592,42.4675,21.39,63,100,1.88,RU,1723100623
303,ilha de mocambique,-15.0342,40.7358,24.9,69,74,3.56,MZ,1723100624
304,kodiak,57.79,-152.4072,12.73,94,100,1.54,US,1723100626
305,porto torres,40.835,8.3972,26.1,60,0,1.39,IT,1723100627
306,ankazobe,-18.3167,47.1167,18.76,51,4,4.69,MG,1723100628
307,bridgewater,44.3835,-64.5155,12.84,96,0,1.31,CA,1723100629
308,yuzhno-kurilsk,44.0306,145.8556,18.67,100,99,1.34,RU,1723100630
309,takaungu,-3.6837,39.8566,25.27,67,36,6.96,KE,1723100631
310,mckinney,33.1976,-96.6153,30.82,59,0,0.89,US,1723100448
311,tolanaro,-25.0319,46.9987,20.04,94,75,3.09,MG,1723100633
312,toliara,-23.35,43.6667,25.57,50,0,2.45,MG,1723100634
313,bay roberts,47.5999,-53.2648,15.64,87,0,4.16,CA,1723100517
314,kristinestad,62.2743,21.376,21.72,64,81,2.89,FI,1723100636
315,sabang,5.8933,95.3214,28.95,73,100,2.47,ID,1723100637
316,greymouth,-42.4667,171.2,7.94,86,100,2.64,NZ,1723100638
317,nguigmi,14.2495,13.1092,27.6,66,100,7.54,NE,1723100640
318,griffith,41.5284,-87.4237,19.97,93,100,0.0,US,1723100641
319,tougue,11.4667,-11.6,19.77,97,97,1.52,GN,1723100642
320,angaur state,6.906,134.13,28.55,73,100,1.18,PW,1723100643
321,petropavlovsk-kamchatsky,53.0452,158.6483,23.33,53,0,2.0,RU,1723100644
322,tual,-5.6667,132.75,25.21,87,91,8.81,ID,1723100646
323,imbituba,-28.24,-48.6703,15.26,98,100,1.51,BR,1723100446
324,ribeira brava,32.65,-17.0667,23.34,72,25,1.35,PT,1723100648
325,katsuura,35.1333,140.3,28.21,80,0,1.98,JP,1723100651
326,sanga-sanga,5.0725,119.7853,27.95,76,99,2.93,PH,1723100652
327,soio,-6.1349,12.3689,21.88,82,100,3.65,AO,1723100653
328,zunyi,27.6867,106.9072,29.9,70,100,5.04,CN,1723100654
329,copala,16.65,-98.9833,26.59,88,97,3.48,MX,1723100655
330,pass christian,30.3158,-89.2475,28.03,74,0,1.54,US,1723100656
331,qamdo,31.1667,97.2333,21.75,33,43,1.02,CN,1723100657
332,nova sintra,14.8667,-24.7167,24.95,84,69,8.38,CV,1723100658
333,bella union,-30.2752,-57.6007,8.02,68,100,3.97,UY,1723100659
334,leh,34.1667,77.5833,17.34,39,94,1.54,IN,1723100660
335,paranaiba,-19.6772,-51.1908,20.44,42,0,2.07,BR,1723100661
336,colares,38.7992,-9.4469,19.63,86,75,3.6,PT,1723100662
337,luderitz,-26.6481,15.1594,11.27,78,0,3.34,,1723100664
338,valparaiso,-33.0393,-71.6273,6.8,87,0,2.06,CL,1723100402
339,east london,-33.0153,27.9116,14.52,54,0,2.57,ZA,1723100432
340,kyzyl-mazhalyk,51.1333,90.6,27.24,27,0,1.36,RU,1723100667
341,fort st. john,56.2499,-120.8529,14.94,72,0,4.12,CA,1723100405
342,turinskaya sloboda,57.6232,64.3858,17.53,44,2,3.9,RU,1723100669
343,vinales,22.6164,-83.7078,24.29,92,8,1.32,CU,1723100670
344,prieska,-29.6641,22.7474,15.16,27,0,3.41,ZA,1723100671
345,abepura,-2.6333,140.5833,30.45,66,20,3.09,ID,1723100672
346,dolinsk,47.35,142.8,18.9,98,100,1.52,RU,1723100673
347,cafayate,-26.073,-65.9761,3.81,84,85,2.77,AR,1723100429
348,newman,37.3138,-121.0208,26.99,50,0,2.69,US,1723100675
349,punta gorda,26.9298,-82.0454,29.03,91,40,4.12,US,1723100678
350,akureyri,65.6835,-18.0878,7.96,93,100,2.06,IS,1723100679
351,al ghayzah,16.2079,52.176,29.07,69,82,2.79,YE,1723100680
352,primero de mayo,-32.2552,-58.4228,6.57,78,3,5.4,AR,1723100681
353,aktau,43.65,51.2,28.32,64,0,9.71,KZ,1723100682
354,awjilah,29.1081,21.2869,31.72,29,0,3.54,LY,1723100683
355,malvan,16.0667,73.4667,27.56,79,95,5.37,IN,1723100685
356,bilozerka,46.6248,32.4425,28.54,33,1,0.9,UA,1723100686
357,remire-montjoly,4.9167,-52.2667,24.02,100,0,0.0,GF,1723100687
358,manikchari,22.8408,91.844,26.79,91,98,3.75,BD,1723100688
359,manokwari,-0.8667,134.0833,28.75,72,26,3.22,ID,1723100690
360,las palmas de gran canaria,28.0997,-15.4134,23.07,69,40,9.77,ES,1723100691
361,silvia,2.611,-76.3785,9.91,90,61,1.66,CO,1723100692
362,chul'man,56.8479,124.9104,23.37,45,8,2.59,RU,1723100693
363,chornobayivka,46.6941,32.5537,28.58,32,5,1.08,UA,1723100694
364,kuacjok,8.3002,27.9903,25.19,74,91,1.56,SS,1723100695
365,kokoda,-8.8785,147.7407,24.87,91,100,1.49,PG,1723100696
366,taro,-8.3862,115.28,25.0,77,99,2.36,ID,1723100697
367,kovalam,8.3667,76.9967,30.05,70,75,4.63,IN,1723100698
368,balta,47.9355,29.6198,24.04,44,91,1.58,UA,1723100699
369,codrington,-38.2667,141.9667,11.79,76,100,9.3,AU,1723100700
370,forbes,-33.3833,148.0167,16.62,62,100,2.71,AU,1723100678
371,tubarjal,30.4999,38.216,31.67,22,0,5.26,SA,1723100703
372,bodaybo,57.8506,114.1933,28.37,40,100,1.0,RU,1723100704
373,marsh harbour,26.5412,-77.0636,28.39,79,9,6.95,BS,1723100705
374,greensburg,40.3015,-79.5389,22.27,92,100,1.79,US,1723100706
375,urumqi,43.801,87.6005,32.53,20,0,3.0,CN,1723100693
376,holualoa,19.6228,-155.9522,24.93,82,40,7.72,US,1723100649
377,mata-utu,-13.2816,-176.1745,25.96,69,100,10.13,WF,1723100710
378,lock haven,41.137,-77.4469,19.27,99,100,1.58,US,1723100711
379,karaj,35.8355,51.0103,29.09,34,57,8.23,IR,1723100712
380,ust-nera,64.5667,143.2,14.03,77,90,1.38,RU,1723100713
381,kirensk,57.7853,108.1119,23.97,52,99,3.96,RU,1723100714
382,shahdad kot,27.8477,67.9055,37.4,48,0,2.38,PK,1723100715
383,takab,36.4009,47.1133,30.81,17,0,2.92,IR,1723100716
384,hadibu,12.65,54.0333,26.86,76,40,10.92,YE,1723100717
385,miles city,46.4083,-105.8406,12.54,82,0,2.57,US,1723100718
386,tucuma,-0.1833,-50.05,24.3,93,15,2.71,BR,1723100719
387,astara,38.5,48.6667,26.99,46,0,3.83,AZ,1723100720
388,petropavlovka,50.6114,105.3196,26.09,47,100,2.01,RU,1723100722
389,miranda,3.2499,-76.2281,20.07,87,17,2.12,CO,1723100723
390,piti village,13.4626,144.6933,28.49,86,0,3.09,GU,1723100724
391,zilair,52.2332,57.4392,20.26,74,64,3.79,RU,1723100725
392,tamanrasset,22.785,5.5228,27.95,13,0,5.66,DZ,1723100726
393,north battleford,52.7834,-108.2847,7.05,87,0,4.63,CA,1723100430
394,oltinko'l,40.8011,72.1634,41.52,10,0,0.99,UZ,1723100728
395,port saint john's,-31.6229,29.5448,23.05,24,0,2.86,ZA,1723100729
396,turan,16.0678,108.2208,34.99,55,20,3.09,VN,1723100572
397,verkhnevilyuysk,63.4453,120.3167,22.58,34,3,1.7,RU,1723100731
398,guichon,-32.35,-57.2,6.01,74,7,3.69,UY,1723100732
399,benguela,-12.5763,13.4055,20.9,79,1,2.25,AO,1723100734
400,chinde,26.8212,87.7095,24.89,95,100,0.76,NP,1723100735
401,touros,-5.1989,-35.4608,22.56,84,7,4.91,BR,1723100737
402,guanare,9.0418,-69.7421,21.46,95,12,1.3,VE,1723100738
403,lamar,33.6668,-95.5836,27.72,73,0,2.06,US,1723100739
404,hobyo,5.3505,48.5268,27.63,60,43,10.56,SO,1723100740
405,zalingei,12.9096,23.4741,20.85,94,100,4.0,SD,1723100741
406,shiraz,29.6036,52.5388,37.69,15,0,0.0,IR,1723100742
407,aykol,38.1751,77.2132,34.04,16,9,2.16,CN,1723100743
408,abqaiq,25.9371,49.6776,43.96,10,100,5.53,SA,1723100744
409,anderstorp,58.8833,14.2833,19.08,83,100,3.36,SE,1723100745
410,port blair,11.6667,92.75,31.02,74,40,4.12,IN,1723100746
411,tucupita,9.0622,-62.051,23.26,99,23,1.21,VE,1723100748
412,kristiansund,63.1115,7.732,17.36,87,0,2.06,NO,1723100749
413,nova vicosa,-17.8919,-39.3719,20.56,76,0,2.58,BR,1723100750
414,rongelap,11.1635,166.8941,28.35,78,100,5.34,MH,1723100751
415,alofi,-19.0595,-169.9187,21.94,64,100,6.69,NU,1723100752
416,fabens,31.5023,-106.1586,31.62,37,92,5.12,US,1723100753
417,barcelos,41.5388,-8.6151,21.06,79,1,0.9,PT,1723100731
418,kismayo,-0.3582,42.5454,26.62,65,8,6.73,SO,1723100755
419,okha,53.5739,142.9478,11.98,95,100,3.69,RU,1723100756
420,enewetak,11.3474,162.3373,28.8,75,52,4.34,MH,1723100707
421,phalodi,27.1333,72.3667,31.93,55,100,6.43,IN,1723100758
422,kruisfontein,-34.0033,24.7314,11.6,64,0,1.61,ZA,1723100761
423,novyy urgal,51.0736,132.5642,22.14,77,99,2.99,RU,1723100762
424,tezu,27.9167,96.1667,25.04,98,100,0.77,IN,1723100763
425,mitsamiouli,-11.3847,43.2844,25.58,67,91,3.72,KM,1723100764
426,springbok,-29.6643,17.8865,7.61,69,0,2.01,ZA,1723100765
427,rreshen,41.7675,19.8756,27.6,20,0,0.59,AL,1723100766
428,izazi,-7.2,35.7333,26.02,34,100,0.57,TZ,1723100767
429,lazaro cardenas,17.9583,-102.2,27.37,85,100,2.16,MX,1723100768
430,pleiku,13.9833,108.0,28.47,64,95,3.66,VN,1723100770
431,lepsy,46.235,78.9456,35.87,14,99,3.91,KZ,1723100771
432,pizarro,4.9533,-77.366,24.63,90,77,1.44,CO,1723100772
433,ploneour-lanvern,47.9,-4.2833,18.16,100,100,1.54,FR,1723100773
434,bubaque,11.2833,-15.8333,26.21,83,100,7.02,GW,1723100774
435,jianshui,23.6363,102.8264,27.67,63,56,4.43,CN,1723100775
436,geraldton,-28.7667,114.6,20.23,64,40,4.63,AU,1723100776
437,lerwick,60.1545,-1.1494,13.0,87,32,11.42,GB,1723100777
438,bay city,43.5945,-83.8889,15.06,88,0,1.03,US,1723100600
439,egilsstadir,65.2653,-14.3948,6.95,100,100,1.54,IS,1723100779
440,port hedland,-20.3167,118.5667,30.03,23,100,5.14,AU,1723100780
441,tazovsky,67.4667,78.7,13.09,56,79,5.06,RU,1723100565
442,prince rupert,54.3161,-130.3201,13.83,100,0,1.54,CA,1723100490
443,boise,43.6135,-116.2035,23.76,43,97,2.24,US,1723100492
444,argo,37.6333,22.7333,29.32,41,0,1.28,GR,1723100786
445,pacific grove,36.6177,-121.9166,15.69,96,100,0.89,US,1723100787
446,bayanhongor,46.7167,100.1167,11.2,73,100,1.86,MN,1723100788
447,jiazi,22.8779,116.067,31.51,74,88,8.07,CN,1723100789
448,kantunilkin,21.0917,-87.45,23.55,99,78,0.21,MX,1723100790
449,mount isa,-20.7333,139.5,28.87,18,0,1.54,AU,1723100791
450,mwinilunga,-11.7358,24.4293,22.53,23,86,4.31,ZM,1723100792
451,puerto baquerizo moreno,-0.9,-89.6,19.43,79,79,6.38,EC,1723100534
452,puerto aysen,-45.4,-72.7,-0.29,98,100,1.52,CL,1723100544
453,aldan,58.6031,125.3894,21.81,48,3,3.44,RU,1723100797
454,gilgit,35.9221,74.3087,30.79,34,8,1.22,PK,1723100798
455,lashio,22.9333,97.75,26.13,78,98,2.02,MM,1723100799
456,lucas,41.6501,-83.6666,21.7,78,100,2.57,US,1723100800
457,revelstoke,50.9832,-118.2023,15.42,72,8,1.03,CA,1723100801
458,bodo,67.28,14.405,21.64,63,0,6.17,NO,1723100802
459,tenenkou,14.4572,-4.9169,25.22,86,100,2.87,ML,1723100803
460,pemangkat,1.1667,108.9667,28.75,70,5,5.02,ID,1723100804
461,alexandria,31.2156,29.9553,29.3,53,0,3.05,EG,1723100434
462,vila do maio,15.1333,-23.2167,24.44,77,81,3.94,CV,1723100808
463,wenchang,30.904,118.4887,38.87,40,0,3.32,CN,1723100809
464,yabelo,4.8833,38.0833,19.09,66,72,5.51,ET,1723100810
465,ardestan,33.3761,52.3694,41.42,8,8,2.83,IR,1723100811
466,hirara,24.8,125.2833,29.66,77,100,1.39,JP,1723100812
467,north bend,43.4065,-124.2243,15.14,95,100,3.84,US,1723100813
468,trujillo,-8.116,-79.03,15.98,94,100,3.09,PE,1723100702
469,brownwood,31.7093,-98.9912,26.62,63,0,3.62,US,1723100815
470,moroni,-11.7022,43.2551,26.23,61,50,1.22,KM,1723100816
471,marica,-22.9194,-42.8186,22.95,63,0,2.97,BR,1723100681
472,pangai,-19.8,-174.35,22.51,71,76,9.99,TO,1723100818
473,candon,17.1947,120.4517,31.68,72,100,4.42,PH,1723100819
474,aswan,24.0934,32.907,36.61,27,49,1.0,EG,1723100820
475,basco,20.4487,121.9702,28.72,83,100,9.7,PH,1723100823
476,buala,-8.145,159.5921,26.08,87,100,4.79,SB,1723100824
477,opuwo,-18.0607,13.84,20.95,25,0,1.23,,1723100825
478,dalandzadgad,43.5708,104.425,29.32,25,100,5.34,MN,1723100826
479,dabola,10.75,-11.1167,22.09,98,100,1.19,GN,1723100827
480,scottburgh,-30.2867,30.7532,23.21,20,0,2.38,ZA,1723100828
481,nadym,65.5333,72.5167,14.51,54,22,5.16,RU,1723100831
482,noumea,-22.2763,166.4572,22.22,99,87,3.24,NC,1723100832
483,maragogi,-9.0122,-35.2225,21.9,88,13,1.01,BR,1723100833
484,lorengau,-2.0226,147.2712,28.91,74,19,4.13,PG,1723100834
485,ataq,14.5377,46.8319,30.56,36,86,1.98,YE,1723100835
486,ulsteinvik,62.3432,5.8487,17.5,76,36,4.47,NO,1723100837
487,dakhla,23.6848,-15.958,19.48,90,11,7.51,EH,1723100838
488,kasungu,-13.0333,33.4833,23.27,35,72,4.85,MW,1723100839
489,mesquite,32.7668,-96.5992,31.08,62,0,0.45,US,1723100334
490,hotan,37.0997,79.9269,33.74,13,79,5.37,CN,1723100841
491,bryne,58.7354,5.6477,16.66,87,100,4.12,NO,1723100842
492,escada,-8.3592,-35.2236,20.41,89,24,1.5,BR,1723100843
493,kota,25.1833,75.8333,26.31,85,100,4.22,IN,1723100844
494,santa cruz,-17.8,-63.1667,17.41,79,85,4.37,BO,1723100845
495,saint-joseph,-21.3667,55.6167,25.21,67,1,3.53,RE,1723100832
496,inarajan village,13.2736,144.7484,28.54,91,100,1.45,GU,1723100847
497,plastun,44.7561,136.2939,25.0,74,73,2.22,RU,1723100848
498,keflavik,64.0049,-22.5624,10.24,93,75,4.63,IS,1723100850
499,brisas barra de suchiate,14.55,-92.2167,26.41,84,100,2.58,MX,1723100851
500,kolpny,52.2282,37.0368,19.99,68,87,4.53,RU,1723100853
501,gagnoa,6.1293,-5.9437,20.93,91,100,1.79,CI,1723100854
502,severo-yeniseyskiy,60.3725,93.0408,19.0,64,100,1.84,RU,1723100855
503,alaghsas,17.0187,8.0168,28.64,53,59,4.04,NE,1723100856
504,garissa,-0.4536,39.6401,27.25,59,98,8.19,KE,1723100857
505,ozzano dell'emilia,44.4443,11.4755,25.72,69,0,2.06,IT,1723100858
506,villa hernandarias,-31.231,-59.985,6.48,74,8,5.78,AR,1723100859
507,hovd,48.0056,91.6419,26.22,24,4,4.1,MN,1723100861
508,pierre,44.3683,-100.351,16.59,84,75,3.6,US,1723100689
509,nogliki,51.8333,143.1667,12.1,98,100,7.93,RU,1723100864
510,port alfred,-33.5906,26.891,18.05,63,0,3.29,ZA,1723100865
511,suwayr,30.1171,40.3893,33.52,12,0,5.7,SA,1723100866
512,floro,61.5996,5.0328,15.04,88,75,8.75,NO,1723100593
513,al jawf,29.5,38.75,32.64,20,5,5.24,SA,1723100868
514,ha'il,27.5219,41.6907,36.01,9,0,2.06,SA,1723100869
515,crucecita,-28.95,-58.9833,7.99,54,7,3.73,AR,1723100870
516,znamenskoye,57.1281,73.8282,18.36,44,20,3.46,RU,1723100871
517,kirkland lake,48.1446,-80.0377,11.85,68,100,2.07,CA,1723100872
518,lubango,-14.9172,13.4925,20.47,25,0,2.66,AO,1723100873
519,meads,38.4126,-82.7091,23.85,93,20,1.79,US,1723100874
520,brandon,27.9378,-82.2859,29.49,88,0,2.06,US,1723100698
521,dibba al-hisn,25.6196,56.2729,37.1,78,89,3.78,AE,1723100877
522,palikir - national government center,6.9248,158.1611,28.62,72,19,4.16,FM,1723100878
523,cill airne,52.05,-9.5167,16.23,94,100,1.96,IE,1723100879
524,woolgoolga,-30.1106,153.2007,17.93,60,0,2.41,AU,1723100880
525,lospalos,-8.5186,127.0025,24.78,66,51,6.48,TL,1723100881
526,acarau,-2.8856,-40.12,23.99,86,78,6.66,BR,1723100882
527,langsa,4.4683,97.9683,33.48,53,39,2.88,ID,1723100848
528,sombrio,-29.1139,-49.6167,17.76,98,100,2.13,BR,1723100884
529,wuwei,37.9281,102.6414,21.61,57,100,5.05,CN,1723100885
530,puerto leguizamo,-0.1934,-74.7819,22.39,84,5,0.47,CO,1723100886
531,okhotsk,59.3833,143.3,19.3,64,0,2.7,RU,1723100887
532,quelimane,-17.8786,36.8883,25.79,57,0,1.6,MZ,1723100889
533,yangjiang,21.85,111.9667,32.46,66,27,4.98,CN,1723100891
534,muynoq,43.7683,59.0214,40.13,13,91,8.41,UZ,1723100892
535,northam,51.0333,-4.2167,18.14,96,100,7.69,GB,1723100893
536,strezhevoy,60.7333,77.5889,17.75,43,100,4.17,RU,1723100894
537,fisterra,42.9049,-9.2629,20.01,82,4,8.37,ES,1723100895
538,salekhard,66.53,66.6019,16.06,50,17,1.66,RU,1723100896
539,nizao,18.25,-70.2,26.31,87,38,3.19,DO,1723100897
540,norilsk,69.3535,88.2027,18.76,43,60,4.23,RU,1723100898
541,vorkuta,67.5,64.0,15.89,46,6,2.09,RU,1723100899
542,kalifornsky,60.4183,-151.29,14.19,97,75,4.12,US,1723100900
543,xiva,41.3783,60.3639,36.99,11,82,4.25,UZ,1723100901
544,zlatograd,41.3833,25.1,24.46,36,0,2.21,BG,1723100902
545,sebdou,34.637,-1.3314,20.61,33,55,0.4,DZ,1723100904
546,dolores,-36.3132,-57.6792,8.0,88,100,2.84,AR,1723100613
547,san luis de la loma,17.2706,-100.8939,26.94,87,100,3.57,MX,1723100906
548,puerto colombia,10.9878,-74.9547,25.05,75,89,2.66,CO,1723100907
549,dergachi,51.2328,48.7659,27.01,41,5,2.24,RU,1723100908
550,chapada dos guimaraes,-15.4606,-55.7497,18.81,40,0,2.65,BR,1723100909
551,nouadhibou,20.931,-17.0347,20.99,88,64,2.57,MR,1723100910
552,jertih,5.7336,102.4897,29.39,83,31,2.65,MY,1723100911
553,yeraliyev,43.2,51.65,32.04,37,0,8.81,KZ,1723100912
554,mweka,-4.85,21.5667,29.43,21,32,1.05,CD,1723100913
555,vigan,17.5747,120.3869,31.63,80,100,5.45,PH,1723100908
556,bikin,46.8161,134.26,28.87,64,32,0.81,RU,1723100916
557,abadeh,31.1608,52.6506,33.91,10,0,3.87,IR,1723100917
558,kenai,60.5544,-151.2583,14.05,96,100,4.12,US,1723100779
559,biltine,14.5333,20.9167,22.89,93,100,5.62,TD,1723100919
560,florenville,49.6998,5.3074,16.82,75,100,1.64,BE,1723100920
561,mao,39.8885,4.2658,26.31,89,20,4.12,ES,1723100921
562,le puy-en-velay,45.0437,3.8852,18.1,91,100,0.81,FR,1723100922
563,sullivan,36.5168,-82.5332,24.19,83,77,0.45,US,1723100923
564,sovetskiy,61.3614,63.5842,17.66,44,32,3.13,RU,1723100913
565,shingu,33.7333,135.9833,29.77,74,40,2.05,JP,1723100925
566,condoto,5.0935,-76.6497,22.56,98,100,0.55,CO,1723100926
567,anzhero-sudzhensk,56.081,86.0285,21.1,72,95,3.3,RU,1723100927
568,nizhnyaya poyma,56.1622,97.1933,24.05,51,77,3.81,RU,1723100929
569,nieuw amsterdam,5.8833,-55.0833,25.09,92,52,2.73,SR,1723100930
